[
  {"id":"f1","name":"Green Valley Food Pantry","category":"Food","address":"12 Harvest Ln","hours":"Mon/Wed 9-2","contact":"(555) 0101","description":"Weekly food distribution and community meals.","image":"data:image/svg+xml;utf8,<svg xmlns='http://www.w3.org/2000/svg' width='400' height='300'><rect width='100%' height='100%' fill='%231a5e3f'/><text x='50%' y='55%' fill='%23f8f8f8' font-family='Arial' font-size='20' text-anchor='middle'>Food Pantry</text></svg>"},
  {"id":"f2","name":"Sprout Community Kitchen","category":"Food","address":"89 Market St","hours":"Daily 11-4","contact":"(555) 0102","description":"Hot meals served daily. Volunteer opportunities available.","image":"data:image/svg+xml;utf8,<svg xmlns='http://www.w3.org/2000/svg' width='400' height='300'><rect width='100%' height='100%' fill='%231a5e3f'/><text x='50%' y='55%' fill='%23f8f8f8' font-family='Arial' font-size='20' text-anchor='middle'>Community Kitchen</text></svg>"},
  {"id":"f3","name":"Neighborhood Food Share","category":"Food","address":"2 Elm Ave","hours":"Tue/Thu 10-1","contact":"(555) 0103","description":"Food boxes, nutrition education and referral services.","image":"data:image/svg+xml;utf8,<svg xmlns='http://www.w3.org/2000/svg' width='400' height='300'><rect width='100%' height='100%' fill='%231a5e3f'/><text x='50%' y='55%' fill='%23f8f8f8' font-family='Arial' font-size='20' text-anchor='middle'>Food Share</text></svg>"},
  {"id":"m1","name":"Hope Health Clinic","category":"Medical","address":"120 Care Blvd","hours":"Mon-Fri 8-5","contact":"(555) 0201","description":"Primary care, screenings, and referral services; income-based clinics.","image":"data:image/svg+xml;utf8,<svg xmlns='http://www.w3.org/2000/svg' width='400' height='300'><rect width='100%' height='100%' fill='%231a5e3f'/><text x='50%' y='55%' fill='%23f8f8f8' font-family='Arial' font-size='20' text-anchor='middle'>Health Clinic</text></svg>"},
  {"id":"m2","name":"Mobile Care Unit","category":"Medical","address":"Various locations","hours":"See schedule","contact":"(555) 0202","description":"Mobile clinic offering vaccinations and wellness checks.","image":"data:image/svg+xml;utf8,<svg xmlns='http://www.w3.org/2000/svg' width='400' height='300'><rect width='100%' height='100%' fill='%231a5e3f'/><text x='50%' y='55%' fill='%23f8f8f8' font-family='Arial' font-size='20' text-anchor='middle'>Mobile Clinic</text></svg>"},
  {"id":"m3","name":"Community Dental Services","category":"Medical","address":"44 Smile St","hours":"Wed/Fri 9-3","contact":"(555) 0203","description":"Low-cost dental care and hygiene education.","image":"data:image/svg+xml;utf8,<svg xmlns='http://www.w3.org/2000/svg' width='400' height='300'><rect width='100%' height='100%' fill='%231a5e3f'/><text x='50%' y='55%' fill='%23f8f8f8' font-family='Arial' font-size='20' text-anchor='middle'>Dental Care</text></svg>"},
  {"id":"e1","name":"Pathways Learning Center","category":"Education","address":"221 Oak St","hours":"Mon-Fri 9-6","contact":"(555) 0301","description":"Adult education, GED classes, and computer literacy courses.","image":"data:image/svg+xml;utf8,<svg xmlns='http://www.w3.org/2000/svg' width='400' height='300'><rect width='100%' height='100%' fill='%231a5e3f'/><text x='50%' y='55%' fill='%23f8f8f8' font-family='Arial' font-size='20' text-anchor='middle'>Learning</text></svg>"},
  {"id":"e2","name":"SkillUp Job Training","category":"Education","address":"9 Industrial Pkwy","hours":"Varies","contact":"(555) 0302","description":"Short vocational programs in trades and IT skills.","image":"data:image/svg+xml;utf8,<svg xmlns='http://www.w3.org/2000/svg' width='400' height='300'><rect width='100%' height='100%' fill='%231a5e3f'/><text x='50%' y='55%' fill='%23f8f8f8' font-family='Arial' font-size='20' text-anchor='middle'>Job Training</text></svg>"},
  {"id":"e3","name":"Youth Learning Hub","category":"Education","address":"300 School Ln","hours":"Afterschool hours","contact":"(555) 0303","description":"Tutoring and enrichment for school-aged children.","image":"data:image/svg+xml;utf8,<svg xmlns='http://www.w3.org/2000/svg' width='400' height='300'><rect width='100%' height='100%' fill='%231a5e3f'/><text x='50%' y='55%' fill='%23f8f8f8' font-family='Arial' font-size='20' text-anchor='middle'>Youth Hub</text></svg>"},
  {"id":"c1","name":"CareerConnect Center","category":"Jobs","address":"55 Commerce Ave","hours":"Mon-Fri 9-5","contact":"(555) 0401","description":"Job listings, resume help and interview coaching.","image":"data:image/svg+xml;utf8,<svg xmlns='http://www.w3.org/2000/svg' width='400' height='300'><rect width='100%' height='100%' fill='%231a5e3f'/><text x='50%' y='55%' fill='%23f8f8f8' font-family='Arial' font-size='20' text-anchor='middle'>Career Center</text></svg>"},
  {"id":"c2","name":"WorkPath Apprenticeship","category":"Jobs","address":"78 Trades Rd","hours":"By appointment","contact":"(555) 0402","description":"Apprenticeships in construction and manufacturing.","image":"data:image/svg+xml;utf8,<svg xmlns='http://www.w3.org/2000/svg' width='400' height='300'><rect width='100%' height='100%' fill='%231a5e3f'/><text x='50%' y='55%' fill='%23f8f8f8' font-family='Arial' font-size='20' text-anchor='middle'>Apprenticeship</text></svg>"},
  {"id":"c3","name":"Gig & Micro-Work Portal","category":"Jobs","address":"Online","hours":"24/7","contact":"(555) 0403","description":"Listings for short-term gigs and micro-work for immediate income.","image":"data:image/svg+xml;utf8,<svg xmlns='http://www.w3.org/2000/svg' width='400' height='300'><rect width='100%' height='100%' fill='%231a5e3f'/><text x='50%' y='55%' fill='%23f8f8f8' font-family='Arial' font-size='20' text-anchor='middle'>Gig Portal</text></svg>"},
  {"id":"com1","name":"Neighborhood Help Center","category":"Community","address":"10 Unity Pl","hours":"Mon-Fri 9-4","contact":"(555) 0501","description":"Central hub for referrals, counseling, and community events.","image":"data:image/svg+xml;utf8,<svg xmlns='http://www.w3.org/2000/svg' width='400' height='300'><rect width='100%' height='100%' fill='%231a5e3f'/><text x='50%' y='55%' fill='%23f8f8f8' font-family='Arial' font-size='20' text-anchor='middle'>Community</text></svg>"},
  {"id":"com2","name":"Family Support Network","category":"Community","address":"6 Pine St","hours":"Tue/Thu 10-3","contact":"(555) 0502","description":"Child support resources, family counseling and casework help.","image":"data:image/svg+xml;utf8,<svg xmlns='http://www.w3.org/2000/svg' width='400' height='300'><rect width='100%' height='100%' fill='%231a5e3f'/><text x='50%' y='55%' fill='%23f8f8f8' font-family='Arial' font-size='20' text-anchor='middle'>Family Support</text></svg>"},
  {"id":"com3","name":"Volunteer & Events Hub","category":"Community","address":"140 Main St","hours":"Event-based","contact":"(555) 0503","description":"Coordinate volunteers, drives, and fundraising events.","image":"data:image/svg+xml;utf8,<svg xmlns='http://www.w3.org/2000/svg' width='400' height='300'><rect width='100%' height='100%' fill='%231a5e3f'/><text x='50%' y='55%' fill='%23f8f8f8' font-family='Arial' font-size='20' text-anchor='middle'>Volunteers</text></svg>"}
]
